[
  "$GPGGA,024918.419,3831.601,S,05838.701,W,1,12,1.0,0.0,M,0.0,M,,*65",
  "$GPGGA,024919.419,3826.699,S,05830.132,W,1,12,1.0,0.0,M,0.0,M,,*6D",
  "$GPGGA,024920.419,3819.207,S,05818.926,W,1,12,1.0,0.0,M,0.0,M,,*6F",
  "$GPGGA,024921.419,3813.773,S,05805.083,W,1,12,1.0,0.0,M,0.0,M,,*68",
  "$GPGGA,024922.419,3807.555,S,05756.843,W,1,12,1.0,0.0,M,0.0,M,,*65",
  "$GPGGA,024923.419,3802.366,S,05748.274,W,1,12,1.0,0.0,M,0.0,M,,*66",
  "$GPGGA,024924.419,3756.912,S,05742.012,W,1,12,1.0,0.0,M,0.0,M,,*6E",
  "$GPGGA,024925.419,3757.951,S,05733.113,W,1,12,1.0,0.0,M,0.0,M,,*6F",
  "$GPGGA,024926.419,3806.777,S,05738.386,W,1,12,1.0,0.0,M,0.0,M,,*68",
  "$GPGGA,024927.419,3802.366,S,05743.330,W,1,12,1.0,0.0,M,0.0,M,,*68",
  "$GPGGA,024928.419,3800.549,S,05737.727,W,1,12,1.0,0.0,M,0.0,M,,*6F",
  "$GPGGA,024929.419,3805.221,S,05731.465,W,1,12,1.0,0.0,M,0.0,M,,*61",
  "$GPGGA,024930.419,3800.029,S,05742.671,W,1,12,1.0,0.0,M,0.0,M,,*65",
  "$GPGGA,024931.419,3751.971,S,05737.397,W,1,12,1.0,0.0,M,0.0,M,,*64",
  "$GPGGA,024932.419,3740.768,S,05739.045,W,1,12,1.0,0.0,M,0.0,M,,*63",
  "$GPGGA,024933.419,3727.183,S,05742.012,W,1,12,1.0,0.0,M,0.0,M,,*6E",
  "$GPGGA,024934.419,3713.295,S,05746.956,W,1,12,1.0,0.0,M,0.0,M,,*67",
  "$GPGGA,024935.419,3708.568,S,05748.604,W,1,12,1.0,0.0,M,0.0,M,,*6F",
  "$GPGGA,024936.419,3701.206,S,05749.263,W,1,12,1.0,0.0,M,0.0,M,,*6E",
  "$GPGGA,024937.419,3654.359,S,05751.240,W,1,12,1.0,0.0,M,0.0,M,,*6D",
  "$GPGGA,024938.419,3647.765,S,05749.592,W,1,12,1.0,0.0,M,0.0,M,,*6A",
  "$GPGGA,024939.419,3638.254,S,05745.967,W,1,12,1.0,0.0,M,0.0,M,,*6E",
  "$GPGGA,024940.419,3630.313,S,05744.648,W,1,12,1.0,0.0,M,0.0,M,,*69",
  "$GPGGA,024941.419,3621.297,S,05744.319,W,1,12,1.0,0.0,M,0.0,M,,*64",
  "$GPGGA,024942.419,3618.111,S,05730.806,W,1,12,1.0,0.0,M,0.0,M,,*66",
  "$GPGGA,024943.419,3619.173,S,05721.577,W,1,12,1.0,0.0,M,0.0,M,,*69",
  "$GPGGA,024944.419,3626.868,S,05719.929,W,1,12,1.0,0.0,M,0.0,M,,*6D",
  "$GPGGA,024945.419,3642.748,S,05714.326,W,1,12,1.0,0.0,M,0.0,M,,*6B",
  "$GPGGA,024946.419,3646.974,S,05714.326,W,1,12,1.0,0.0,M,0.0,M,,*6D",
  "$GPGGA,024947.419,3657.520,S,05709.712,W,1,12,1.0,0.0,M,0.0,M,,*6E",
  "$GPGGA,024948.419,3701.995,S,05703.450,W,1,12,1.0,0.0,M,0.0,M,,*6E",
  "$GPGGA,024949.419,3706.203,S,05655.210,W,1,12,1.0,0.0,M,0.0,M,,*6C",
  "$GPGGA,024950.419,3719.851,S,05703.120,W,1,12,1.0,0.0,M,0.0,M,,*65",
  "$GPGGA,024951.419,3725.352,S,05712.349,W,1,12,1.0,0.0,M,0.0,M,,*6E",
  "$GPGGA,024952.419,3730.061,S,05716.633,W,1,12,1.0,0.0,M,0.0,M,,*66",
  "$GPGGA,024953.419,3737.898,S,05724.214,W,1,12,1.0,0.0,M,0.0,M,,*6E",
  "$GPGGA,024954.419,3746.764,S,05727.180,W,1,12,1.0,0.0,M,0.0,M,,*6E",
  "$GPGGA,024955.419,3753.532,S,05732.783,W,1,12,1.0,0.0,M,0.0,M,,*6B",
  "$GPGGA,024956.419,3802.885,S,05745.967,W,1,12,1.0,0.0,M,0.0,M,,*66",
  "$GPGGA,024957.419,3808.592,S,05737.727,W,1,12,1.0,0.0,M,0.0,M,,*69",
  "$GPGGA,024958.419,3808.592,S,05744.319,W,1,12,1.0,0.0,M,0.0,M,,*6B",
  "$GPGGA,024959.419,3800.029,S,05739.045,W,1,12,1.0,0.0,M,0.0,M,,*67",
  "$GPGGA,025000.419,3805.480,S,05739.705,W,1,12,1.0,0.0,M,0.0,M,,*62",
  "$GPGGA,025001.419,3803.924,S,05729.817,W,1,12,1.0,0.0,M,0.0,M,,*6B",
  "$GPGGA,025002.419,3756.652,S,05742.012,W,1,12,1.0,0.0,M,0.0,M,,*69",
  "$GPGGA,025003.419,3757.951,S,05744.319,W,1,12,1.0,0.0,M,0.0,M,,*6B",
  "$GPGGA,025004.419,3758.990,S,05744.319,W,1,12,1.0,0.0,M,0.0,M,,*6E",
  "$GPGGA,025005.419,3804.702,S,05736.079,W,1,12,1.0,0.0,M,0.0,M,,*6C",
  "$GPGGA,025006.419,3757.172,S,05737.727,W,1,12,1.0,0.0,M,0.0,M,,*6A",
  "$GPGGA,025007.419,3756.912,S,05737.727,W,1,12,1.0,0.0,M,0.0,M,,*64",
  "$GPGGA,025008.419,3751.190,S,05755.195,W,1,12,1.0,0.0,M,0.0,M,,*65",
  "$GPGGA,025009.419,3750.149,S,05812.993,W,1,12,1.0,0.0,M,0.0,M,,*63",
  "$GPGGA,025010.419,3743.115,S,05820.903,W,1,12,1.0,0.0,M,0.0,M,,*68",
  "$GPGGA,025011.419,3739.986,S,05829.802,W,1,12,1.0,0.0,M,0.0,M,,*6F",
  "$GPGGA,025012.419,3727.183,S,05828.484,W,1,12,1.0,0.0,M,0.0,M,,*6D",
  "$GPGGA,025013.419,3720.638,S,05827.166,W,1,12,1.0,0.0,M,0.0,M,,*6A",
  "$GPGGA,025014.419,3714.082,S,05830.132,W,1,12,1.0,0.0,M,0.0,M,,*6A",
  "$GPGGA,025015.419,3715.656,S,05835.735,W,1,12,1.0,0.0,M,0.0,M,,*61",
  "$GPGGA,025016.419,3716.968,S,05845.293,W,1,12,1.0,0.0,M,0.0,M,,*6D",
  "$GPGGA,025017.419,3718.279,S,05852.214,W,1,12,1.0,0.0,M,0.0,M,,*60",
  "$GPGGA,025018.419,3721.686,S,05901.113,W,1,12,1.0,0.0,M,0.0,M,,*62",
  "$GPGGA,025019.419,3730.584,S,05849.578,W,1,12,1.0,0.0,M,0.0,M,,*66",
  "$GPGGA,025020.419,3736.071,S,05844.634,W,1,12,1.0,0.0,M,0.0,M,,*63",
  "$GPGGA,025021.419,3743.115,S,05843.975,W,1,12,1.0,0.0,M,0.0,M,,*6E",
  "$GPGGA,025022.419,3749.889,S,05841.667,W,1,12,1.0,0.0,M,0.0,M,,*65",
  "$GPGGA,025023.419,3756.652,S,05840.679,W,1,12,1.0,0.0,M,0.0,M,,*6C",
  "$GPGGA,025024.419,3803.405,S,05844.634,W,1,12,1.0,0.0,M,0.0,M,,*69",
  "$GPGGA,025025.419,3814.032,S,05845.293,W,1,12,1.0,0.0,M,0.0,M,,*66",
  "$GPGGA,025026.419,3819.982,S,05842.656,W,1,12,1.0,0.0,M,0.0,M,,*60",
  "$GPGGA,025027.419,3827.215,S,05838.372,W,1,12,1.0,0.0,M,0.0,M,,*67",
  "$GPGGA,025028.419,3831.601,S,05840.020,W,1,12,1.0,0.0,M,0.0,M,,*65"
]